City_ID,City,Country,Max Temp,Current Description,Lat,Lng,Hotel Name
0,Pisco,PE,67.01,clear sky,-13.7,-76.2167,Hotel San Isidro Oficial
2,Mataura,NZ,56.25,scattered clouds,-46.1927,168.8643,Ellie's Villa
3,Hithadhoo,MV,82.22,clear sky,-0.6,73.0833,Scoop Guest House
5,Nortelandia,BR,76.42,scattered clouds,-14.4547,-56.8028,Hotel Karysmã
6,Saint George,US,64.99,clear sky,37.1041,-113.5841,Best Western Plus Abbey Inn
9,Busselton,AU,75.04,broken clouds,-33.65,115.3333,Observatory Guest House
10,Qujing,CN,57.94,broken clouds,25.4833,103.7833,Yulong Hotel
11,Cape Town,ZA,55.11,scattered clouds,-33.9258,18.4232,"Radisson Blu Hotel Waterfront, Cape Town"
12,Sao Filipe,CV,70.75,clear sky,14.8961,-24.4956,Hotel Xaguate
13,Vaini,TO,82.56,broken clouds,-21.2,-175.2,Keleti Beach Resort
14,Rikitea,PF,78.58,clear sky,-23.1203,-134.9692,People ThankYou
15,Vao,NC,78.57,light rain,-22.6667,167.4833,Hotel Kou-Bugny
18,Kalmunai,LK,82.13,broken clouds,7.4167,81.8167,VS Villa
20,Yumen,CN,67.82,clear sky,40.2833,97.2,
21,Harper,LR,79.05,light rain,4.375,-7.7169,Screensaver
22,Barstow,US,79.79,clear sky,34.8986,-117.0228,"Motel 6 Barstow, CA"
23,Mar Del Plata,AR,69.1,clear sky,-38.0023,-57.5575,Gran Hotel Mar del Plata
25,Bredasdorp,ZA,57.09,overcast clouds,-34.5322,20.0403,Bredasdorp Country Manor
26,Boundiali,CI,74.79,light rain,9.5217,-6.4869,Hotel Paysan Boundiali
27,Meulaboh,ID,83.59,broken clouds,4.1363,96.1285,Kost Pria
29,Salalah,OM,77.09,scattered clouds,17.0151,54.0924,"HAMDAN PLAZA HOTEL SALALAH, an HTG Hotel"
31,Sahuaripa,MX,77.59,clear sky,29.05,-109.2333,Estatua de Sahuaripa
32,Kaitangata,NZ,56.05,broken clouds,-46.2817,169.8464,Kaitangata Motor Camp
33,San Patricio,US,77.09,clear sky,28.017,-97.5169,"Motel 6 Sinton, TX"
34,Avarua,CK,84.25,scattered clouds,-21.2078,-159.775,Paradise Inn
35,Komsomolskiy,UZ,61.52,broken clouds,40.4272,71.7189,Ikathouse
37,Vila Velha,BR,78.75,broken clouds,-20.3297,-40.2925,Hotel Vitória Palace
38,Cervo,ES,54.23,broken clouds,43.6702,-7.4101,Hotel Spa Galatea
39,Butaritari,KI,81.68,broken clouds,3.0707,172.7902,Isles Sunset Lodge
41,Bluff,NZ,53.82,broken clouds,-46.6,168.3333,Bluff Homestead - Guesthouse & Campervan Park
46,Roma,US,53.74,overcast clouds,43.2128,-75.4557,Wingate By Wyndham Rome
47,Atuona,PF,79.3,few clouds,-9.8,-139.0333,Villa Enata
48,Isangel,VU,80.37,light rain,-19.55,169.2667,Tanna Lodge
51,Castro,BR,62.19,broken clouds,-24.7911,-50.0119,CHACARA BAILLY
52,Diamantino,BR,75.96,scattered clouds,-14.4086,-56.4461,Hotel Delta
53,Hermanus,ZA,52.81,light rain,-34.4187,19.2345,Misty Waves Boutique Hotel
55,Port Elizabeth,ZA,56.1,clear sky,-33.918,25.5701,39 On Nile Guest House
56,Fortuna,US,55.85,clear sky,40.5982,-124.1573,Super 8 by Wyndham Fortuna
57,Morros,BR,75.61,broken clouds,-9.4467,-46.3003,
59,Tuatapere,NZ,54.81,scattered clouds,-46.1333,167.6833,Ron and Tony's Bed & Breakfast
61,Colborne,CA,55.11,light rain,44.0001,-77.8828,Colborne Guest House
62,Bengkulu,ID,76.17,overcast clouds,-3.8004,102.2655,Grage Hotel Bengkulu
63,Santa Cruz De Tenerife,ES,59.79,broken clouds,28.4682,-16.2546,Hotel Silken Atlántida Santa Cruz
64,Hobart,AU,68.02,scattered clouds,-42.8794,147.3294,St Ives Hobart Accommodation Tasmania
65,Chota,PE,55.56,broken clouds,-6.55,-78.65,Hotel lmata 2
66,Christchurch,NZ,60.42,broken clouds,-43.5333,172.6333,The George
67,Albany,US,50.65,overcast clouds,42.6001,-73.9662,
68,Phan Thiet,VN,86.79,overcast clouds,10.9333,108.1,Hotel Saigon-PT
71,Faanui,PF,82.78,light rain,-16.4833,-151.75,Bora-Bora Pearl Beach Resort & Spa
72,Lebu,CL,55.56,overcast clouds,-37.6167,-73.65,Hostal Las Lilas
75,New Norfolk,AU,67.66,clear sky,-42.7826,147.0587,The Shingles Riverside Cottages
76,Oriximina,BR,75.18,overcast clouds,-1.7656,-55.8661,Pousada Tia Amélia
78,Caravelas,BR,76.05,clear sky,-17.7125,-39.2481,Pousada dos Navegantes
79,Waipawa,NZ,52.56,overcast clouds,-41.4122,175.5153,Tora Coastal Walk
80,Sao Joao Da Barra,BR,75.18,overcast clouds,-21.6403,-41.0511,Pousada Porto De Canoas
82,Ranong,TH,84.13,broken clouds,9.9658,98.6348,Tinidee Hotel@Ranong
83,Taoudenni,ML,78.15,clear sky,22.6783,-3.9836,
85,Grenville,GD,78.82,scattered clouds,12.1167,-61.6167,Valley Breeze Guest House
86,Garmsar,IR,67.53,overcast clouds,35.2182,52.3409,آذین فوم
87,Dalby,AU,74.75,broken clouds,-27.1833,151.2667,Kobbers Motor Inn Dalby
92,Carnarvon,AU,86.07,few clouds,-24.8667,113.6333,Hospitality Carnarvon
94,Wanning,CN,77.94,broken clouds,18.8003,110.3967,Paradise Hotel
96,Grand Gaube,MU,75.6,broken clouds,-20.0064,57.6608,Veranda Paul et Virginie Hotel & Spa
97,San Andres,CO,82.42,broken clouds,12.5847,-81.7006,Hotel Arena Blanca
98,Jamestown,US,54.99,moderate rain,42.097,-79.2353,Hampton Inn & Suites Jamestown
99,Sakakah,SA,67.57,scattered clouds,29.9697,40.2064,Fakhamat Al Orjoana Apartment
100,Georgetown,MY,84.13,few clouds,5.4112,100.3354,Cititel Penang
101,Tabou,CI,79.11,light rain,4.423,-7.3528,hotêl doufoulougou
102,Dingle,PH,80.58,overcast clouds,10.9995,122.6711,SEGAYA PROPERTY
103,Pitimbu,BR,75.79,overcast clouds,-7.4706,-34.8086,Reserva do Abiaí
106,Port Alfred,ZA,57.18,broken clouds,-33.5906,26.891,The Halyards Hotel
107,Puerto Madryn,AR,56.68,overcast clouds,-42.7692,-65.0385,Hotel Tolosa
108,San Ignacio,BZ,86.14,clear sky,17.1561,-89.0714,Rainforest Haven Inn
109,Mpulungu,ZM,70.68,overcast clouds,-8.7623,31.1141,Chela moche guest house
110,Hilo,US,71.33,moderate rain,19.7297,-155.09,Hilo Hawaiian Hotel
111,Goure,NE,80.49,scattered clouds,13.9835,10.2704,
112,Mopti,ML,87.84,broken clouds,14.6667,-4.0,
113,Touros,BR,78.73,broken clouds,-5.1989,-35.4608,INN NEW HORIZON
114,Arraial Do Cabo,BR,75.06,few clouds,-22.9661,-42.0278,Pousada Porto Praia
115,Misratah,LY,61.25,clear sky,32.3754,15.0925,Almasa Hotel
119,Lindi,TZ,77.16,overcast clouds,-10.0,39.7167,Lindi paradise house
120,Cabedelo,BR,75.87,scattered clouds,-6.9811,-34.8339,Hotel Pigalle
121,Mangrol,IN,83.32,scattered clouds,21.1167,70.1167,Hotel The Royal Honours
123,Saint-Joseph,RE,75.58,scattered clouds,-21.3667,55.6167,"""Plantation Bed and Breakfast"
124,Zhangye,CN,66.16,clear sky,38.9342,100.4517,Zhangye Lvzhou Holiday Inn
125,Kutum,SD,74.07,clear sky,14.2,24.6667,Dibbo areaمنطقة دبو
126,Najran,SA,57.85,clear sky,17.4924,44.1277,محمد هادي ال فطيح
127,Jalu,LY,85.86,clear sky,29.0331,21.5482,صاحبة الفخامة
128,Lexington,US,51.8,overcast clouds,37.9887,-84.4777,DoubleTree Suites by Hilton Hotel Lexington
129,Cidreira,BR,68.63,few clouds,-30.1811,-50.2056,Hotel Castelo
130,Lorengau,PG,81.03,overcast clouds,-2.0226,147.2712,Lorengau Harbourside Hotel
131,Port Lincoln,AU,64.54,clear sky,-34.7333,135.8667,Port Lincoln Hotel
132,Tawang,IN,52.79,overcast clouds,27.5833,91.8667,Hotel Mount View
133,Carauari,BR,72.16,scattered clouds,-4.8828,-66.8958,Hotel Fellip
134,Mahebourg,MU,75.49,scattered clouds,-20.4081,57.7,Shandrani Beachcomber Resort & Spa
136,Port Blair,IN,78.84,thunderstorm,11.6667,92.75,"Welcomhotel By ITC Hotels, Bay Island, Port Blair"
137,Fenyi,CN,77.07,clear sky,27.8112,114.6681,Jinhao Hotel
138,Merritt Island,US,80.04,clear sky,28.5392,-80.672,
141,Garowe,SO,66.67,clear sky,8.4054,48.4845,Curubo Hotel
142,Samarkand,UZ,62.02,few clouds,39.6542,66.9597,Ideal Hotel
143,Itupiranga,BR,73.38,overcast clouds,-5.1347,-49.3267,Hotel Panorama
145,Krasnyy Chikoy,RU,50.58,scattered clouds,50.3643,108.7512,Persona
146,Syracuse,IT,56.79,clear sky,37.0881,15.2792,Hotel Posta
149,Constitucion,CL,55.74,few clouds,-35.3333,-72.4167,Hotel Boutique Las Azucenas
152,Bathsheba,BB,77.61,scattered clouds,13.2167,-59.5167,Atlantis Hotel
153,Saint-Philippe,RE,76.59,broken clouds,-21.3585,55.7679,"Chambres d'hôte ""La Trinité"""
154,Sola,VU,83.14,overcast clouds,-13.8833,167.55,Leumerus Bungalows
155,Jinan,CN,66.67,clear sky,36.6683,116.9972,Sofitel Silver Plaza Hotel Jinan
157,Mackay,AU,88.68,clear sky,-21.15,149.2,International Lodge Motel
158,Ribeira Grande,PT,62.11,overcast clouds,38.5167,-28.7,Quinta da Meia Eira
162,Codrington,AU,69.48,scattered clouds,-38.2667,141.9667,Codrington Gardens Bed And Breakfast
163,Sao Gabriel Da Cachoeira,BR,73.65,overcast clouds,-0.1303,-67.0892,Alarne - Área De Lazer Do Alto Rio Negro
164,Manokwari,ID,83.26,overcast clouds,-0.8667,134.0833,Swiss Belhotel Manokwari
165,Sao Jose Do Belmonte,BR,72.37,overcast clouds,-7.8614,-38.7597,Pousada Pedra do Reino
167,Alyangula,AU,87.67,scattered clouds,-13.8483,136.4192,Groote Eylandt Lodge
168,Kruisfontein,ZA,53.89,broken clouds,-34.0033,24.7314,Oyster Bay House Rental
170,Zabol,AF,67.42,clear sky,32.25,67.25,
171,Kapaa,US,80.58,light rain,22.0752,-159.319,Sheraton Kauai Coconut Beach Resort
172,Victoria,HK,79.97,scattered clouds,22.2855,114.1577,Mini Hotel Central
173,Katsuura,JP,58.84,overcast clouds,35.1333,140.3,Katsuura Hotel Mikazuki
176,Port-Gentil,GA,80.35,overcast clouds,-0.7193,8.7815,Fengshui Residence
177,Los Llanos De Aridane,ES,58.75,overcast clouds,28.6585,-17.9182,Valle Aridane
178,Acapulco,MX,75.85,broken clouds,16.8634,-99.8901,HS Hotsson Smart Acapulco
179,Salta,AR,62.58,clear sky,-24.7859,-65.4117,Hotel Alejandro I
181,Totness,SR,76.06,light rain,5.8833,-56.3167,STAATS LOGEERGEBOUW TOTNESS
182,Tabuk,PH,78.94,overcast clouds,17.4189,121.4443,Golden Berries Hotel and Convention
183,Kantilo,IN,88.92,few clouds,20.35,85.1833,Hostel Building at Kantilo Nilamadhaba Mahavidyalaya
184,Guelph,CA,50.68,mist,43.5501,-80.2497,Comfort Inn Guelph
185,Byron Bay,AU,76.89,scattered clouds,-28.65,153.6167,Backpackers Inn
186,Cururupu,BR,73.98,heavy intensity rain,-1.8283,-44.8683,POUSADA TRAVÉS'CIA
187,Poum,NC,81.21,overcast clouds,-20.2333,164.0167,
190,Monrovia,LR,74.97,light rain,6.3005,-10.7969,Sunset Inn
191,Harindanga,IN,86.23,clear sky,22.0383,88.3214,Hasanur Builders
192,Puerto Ayora,EC,77.63,light rain,-0.7393,-90.3518,Finch Bay Galapagos Hotel
193,Avera,US,64.45,heavy intensity rain,33.194,-82.5271,
195,Kalat,PK,62.69,clear sky,29.0225,66.5916,PHE Rest House
196,Abu Kamal,SY,66.52,clear sky,34.4506,40.9171,محطة التلفاز
197,Kudahuvadhoo,MV,83.05,few clouds,2.6708,72.8944,Niyama Private Islands Maldives
198,Hami,CN,72.07,clear sky,42.8,93.45,Laoyutang Resort
199,Marzuq,YE,64.35,clear sky,14.4,46.4667,
201,Manggar,ID,86.22,overcast clouds,-2.8833,108.2667,Guest Hotel
202,Matamoros,MX,75.74,clear sky,25.5333,-103.25,Quinta Belem
203,Padang,ID,77.05,overcast clouds,-0.9492,100.3543,Mercure Padang
204,Chuy,UY,59.27,clear sky,-33.6971,-53.4616,Nuevo Hotel Plaza
207,Tautira,PF,82.27,broken clouds,-17.7333,-149.15,Pension Oaoa
208,Huarmey,PE,69.84,broken clouds,-10.0681,-78.1522,Hotel Miramar
209,San Pedro,PH,87.35,broken clouds,14.35,121.0167,Esquivel's Garden And Resort
210,Paraiso,CR,68.88,overcast clouds,9.8383,-83.8656,Hotel Rinconcito Verde
214,Lata,PT,54.81,overcast clouds,40.1629,-8.3327,Casa Maquia
215,Oum Hadjer,TD,86.43,broken clouds,13.2954,19.6966,
218,Erzin,TR,57.56,scattered clouds,36.9559,36.2,Artemis Otel
219,Pangoa,PE,70.74,broken clouds,-12.1167,-73.0,
221,Benjamin Aceval,PY,78.94,broken clouds,-24.9667,-57.5667,Escuela Agrícola y Hotel Cerrito
222,Kafue,ZM,67.03,light rain,-15.7691,28.1814,Purview Lodges Ltd
223,Broken Hill,AU,71.31,clear sky,-31.95,141.4333,Royal Exchange Hotel
224,Road Town,VG,78.84,few clouds,18.4167,-64.6167,"ZINGARA 76ft Catamaran, full crew-all included"
225,Chenghai,CN,73.31,clear sky,23.4632,116.768,Guangdong Hotel
226,Nova Olinda Do Norte,BR,73.99,broken clouds,-3.8881,-59.0942,Casa Juazeiro
227,Alta Floresta,BR,71.44,broken clouds,-9.8756,-56.0861,Floresta Amazonica Hotel
228,Trinidad,BO,75.27,broken clouds,-14.8333,-64.9,Hotel Piesta
229,Ponta Do Sol,PT,61.43,scattered clouds,32.6667,-17.1,Hotel do Campo
230,San Carlos De Bariloche,AR,51.55,broken clouds,-41.1456,-71.3082,Hotel Patagonia
231,Geraldton,AU,88.21,broken clouds,-28.7667,114.6,Broadwater Mariner Resort
232,Beyneu,KZ,53.46,scattered clouds,45.3167,55.2,NUR
233,Inirida,CO,74.3,overcast clouds,3.8653,-67.9239,Fuente del Guania Hotel de Lujo
234,Conceicao Do Araguaia,BR,74.32,overcast clouds,-8.2578,-49.2647,Tarumã Tropical Hotel
235,Coromandel,BR,70.3,broken clouds,-18.4733,-47.2003,Hotel Dona Adélia
236,Esperance,AU,73.24,clear sky,-33.8667,121.9,Hospitality Esperance
237,Aljezur,PT,50.5,few clouds,37.3191,-8.8033,Amazigh Hostel
239,Kieta,PG,77.79,moderate rain,-6.2167,155.6333,Uruna Bay Retreat
240,Rehoboth,,59.49,broken clouds,-23.3167,17.0833,Noble Luminous Accommodation
241,Nizwa,OM,81.3,clear sky,22.9333,57.5333,Orient Apartments
244,Kibala,TD,81.05,broken clouds,9.1104,18.3463,hotel safari
246,Robertsport,LR,76.15,overcast clouds,6.7533,-11.3686,Kwepunha Retreat
247,Rosita,NI,74.75,overcast clouds,13.9268,-84.4032,Hospedaje Zeledón
248,Mahibadhoo,MV,83.12,clear sky,3.7833,72.9667,Omadhoo Inn
249,Matara,LK,79.9,broken clouds,5.9485,80.5353,Amaloh Boutique Resort
252,Bambous Virieux,MU,75.45,scattered clouds,-20.3428,57.7575,Casa Tia Villa
255,Kalabo,ZM,65.05,broken clouds,-14.97,22.6814,Sikakubete Guest House Kalabo Town Council
256,Hamilton,US,50.63,clear sky,39.1834,-84.5333,Six Acres Bed & Breakfast
257,Mangai,CD,71.15,overcast clouds,-4.05,19.5333,
258,Richards Bay,ZA,71.76,light rain,-28.783,32.0377,BON Hotel Waterfront Richards Bay
260,Aswan,EG,79.9,clear sky,24.0934,32.907,Nuba Nile
261,Imbituba,BR,73.81,overcast clouds,-28.24,-48.6703,Praia Hotel Imbituba
263,Xinpu,CN,62.55,clear sky,34.5997,119.1594,Pattaya Leisure Hotel
264,Alofi,NU,84.09,overcast clouds,-19.0595,-169.9187,Taloa Heights
265,Goma,CD,62.78,overcast clouds,-1.6792,29.2228,"Goma, CENTRE D'ACCUEIL CARITAS"
266,Yining,CN,78.69,clear sky,29.0361,114.5636,Xiushui Hotel
267,Hasaki,JP,61.29,overcast clouds,35.7333,140.8333,Inubosaki Kanko Hotel
268,Tacoronte,ES,54.16,broken clouds,28.4769,-16.4102,Casa Laurel
269,Daru,PG,85.66,scattered clouds,-9.0763,143.2092,Daru Lodge
270,Sayhat,SA,68.2,broken clouds,26.4852,50.0405,OYO 426 Royal Al Khaleej Furnished Apartments
271,Fayaoue,NC,80.94,overcast clouds,-20.65,166.5333,Chez Dydyce Guesthouse
272,San Vicente,AR,66.4,light rain,-26.6167,-54.1333,Complejo Turístico Farelluk
273,Winnemucca,US,59.05,clear sky,40.973,-117.7357,Winners Inn Casino
274,Quatre Cocos,MU,75.31,overcast clouds,-20.2078,57.7625,Sunrise Attitude Hotel
275,Viransehir,TR,57.02,clear sky,37.2353,39.7631,Viranşehir Öğretmenevi
276,Mount Gambier,AU,67.91,overcast clouds,-37.8333,140.7667,The Commodore
277,Kavieng,PG,82.51,light rain,-2.5744,150.7967,Nusa Island Retreat
279,Namibe,AO,71.1,clear sky,-15.1961,12.1522,Hotel Chik Chik Namibe
280,Olinda,BR,82.13,broken clouds,-8.0089,-34.8553,Flat Quatro Rodas Olinda
282,Chimbote,PE,68.04,overcast clouds,-9.0853,-78.5783,Hotel Briliá
284,Pacific Grove,US,75.15,clear sky,36.6177,-121.9166,Lovers Point Inn
285,Susanville,US,52.92,clear sky,40.4163,-120.653,Comfort Inn & Suites
287,San Cristobal,VE,73.58,scattered clouds,7.7669,-72.225,Pirineos
288,Cabo San Lucas,MX,70.61,clear sky,22.8909,-109.9124,Hotel Tesoro Los Cabos
289,Karratha,AU,94.69,few clouds,-20.7377,116.8463,ibis Styles Karratha
290,Tessalit,ML,80.37,clear sky,20.1986,1.0114,
292,Koregaon,IN,84.27,clear sky,18.65,74.0833,hotel nisarg lounge
293,Namatanai,PG,80.02,overcast clouds,-3.6667,152.4333,Seagulls Inn Namatani
295,Phonhong,LA,86.86,scattered clouds,18.5007,102.4166,Manyvong Guest House
297,Miranda,CO,69.93,scattered clouds,3.2499,-76.2281,unidiversidad organica la utopia
299,Bandarbeyla,SO,77.83,few clouds,9.4942,50.8122,JABIR HOTEL
300,Naze,JP,67.12,broken clouds,28.3667,129.4833,Shishime Hotel
302,Tezu,IN,80.4,broken clouds,27.9167,96.1667,Circuit House
303,Guerrero Negro,MX,62.73,clear sky,27.9769,-114.0611,"Casa Laguna, Bed & Breakfast"
304,Rio De Janeiro,BR,77.0,broken clouds,-22.9028,-43.2075,Hotel cruz de ouro
305,Puerto Colombia,CO,80.69,broken clouds,10.9878,-74.9547,Hotel El Emigrante
306,Wilmington,US,70.99,few clouds,34.2257,-77.9447,"Hotel Ballast Wilmington, Tapestry Collection by Hilton"
307,Lavumisa,SZ,71.31,broken clouds,-27.31,31.892,ROADSIDE B&B
308,Pilibanga,IN,90.54,clear sky,29.4916,74.079,Sharma Bhawan
309,Buraydah,SA,72.05,clear sky,26.326,43.975,Mövenpick Qassim
310,Carutapera,BR,75.61,overcast clouds,-1.195,-46.02,Lidera
311,Beloha,MG,70.54,clear sky,-25.1667,45.05,
312,Kununurra,AU,93.18,few clouds,-15.7667,128.7333,Hotel Kununurra
313,Jiayuguan,CN,65.66,clear sky,39.8167,98.3,Jiugang Hotel - Jiayuguan
314,Isiro,CD,63.79,overcast clouds,2.7739,27.616,Guest House Hewa Bora
315,Jucuapa,SV,74.8,overcast clouds,13.5167,-88.3833,Casa De Evelin
317,Bonfim,BR,77.29,broken clouds,3.0833,-59.95,
318,Takoradi,GH,80.29,overcast clouds,4.8845,-1.7554,Raybow International Hotel
319,Te Anau,NZ,53.85,few clouds,-45.4167,167.7167,Kingsgate Hotel Te Anau
321,Noumea,NC,81.0,moderate rain,-22.2763,166.4572,Hôtel Le Lagon
324,Suleja,NG,81.59,overcast clouds,9.1758,7.1808,Capy Motel
326,Zabid,YE,78.19,clear sky,14.1951,43.3152,مغرب التريبه
327,Flinders,AU,67.37,light rain,-34.5833,150.8552,Shellharbour Resort & Conference Centre
330,Hambantota,LK,79.14,few clouds,6.1241,81.1185,Bungalow 63
331,Lompoc,US,78.94,clear sky,34.6391,-120.4579,"Holiday Inn Express Lompoc, an IHG Hotel"
335,Pahalgam,IN,50.59,clear sky,34.0333,75.3333,Grand Mumtaz Resorts Pahalgam
336,Boa Vista,BR,84.18,clear sky,2.8197,-60.6733,Aipana Plaza Hotel
338,Lodwar,KE,86.41,broken clouds,3.1191,35.5973,Solmar Gracious Hotel
339,Varanasi,IN,80.69,haze,25.3333,83.0,"Taj Ganges, Varanasi"
342,Segou,ML,86.76,broken clouds,13.4317,-6.2157,Comme chez soi
343,Muroto,JP,62.47,overcast clouds,33.2833,134.15,Oota Ryokan
344,Menongue,AO,60.89,few clouds,-14.6585,17.691,Ritz Lauca
345,Yatou,CN,57.96,clear sky,37.15,122.3833,GreenTree Hotel Rongcheng Bus Station
347,Monaco-Ville,FR,51.64,clear sky,43.731,7.4248,Le Méridien Beach Plaza
348,Oistins,BB,77.09,scattered clouds,13.0667,-59.5333,Butterfly Beach Hotel
349,Cockburn Town,TC,78.39,clear sky,21.4612,-71.1419,Osprey Beach Hotel
352,Altos,BR,73.71,overcast clouds,-5.0381,-42.46,Pousada Das Aguias
353,Soyo,AO,77.41,overcast clouds,-6.1349,12.3689,Hotel Mpampa
354,Yulara,AU,80.44,clear sky,-25.2406,130.9889,Desert Gardens Hotel - Ayers Rock Resort
356,Opuwo,,64.78,clear sky,-18.0607,13.84,ABBA Guesthouse
361,Bachaquero,VE,80.78,scattered clouds,9.9694,-71.1494,casa de los dinosaurios
362,Corinto,GR,59.41,overcast clouds,37.9407,22.9573,Ephira Hotel
363,Changde,CN,76.35,clear sky,29.0464,111.6783,Kangshida Hotel
364,Puerto Leguizamo,CO,73.4,overcast clouds,-0.1934,-74.7819,la casona de juancho
367,Luderitz,,61.14,overcast clouds,-26.6481,15.1594,LÜDERITZ NEST HOTEL
371,Akyab,MM,84.18,few clouds,20.15,92.9,Hotel Memory
373,Torit,SS,78.93,broken clouds,4.4133,32.5678,Diplomat Guest House
374,Mwene-Ditu,CD,64.45,overcast clouds,-7.0,23.45,Hôtel Kamas
375,Guanica,PR,77.05,clear sky,17.9716,-66.908,Copamarina Beach Resort & Spa
376,Uvalde,US,71.13,clear sky,29.3669,-99.767,
377,Coquimbo,CL,56.93,overcast clouds,-29.9533,-71.3436,Hotel San Juan
378,Jambi,ID,72.52,light rain,-1.6,103.6167,ASTON Jambi Hotel & Conference Center
384,Baruun-Urt,MN,56.5,broken clouds,46.6806,113.2792,Ахмадын амралт сувилал
385,Minas De Barroteran,MX,69.28,clear sky,27.6333,-101.2833,Motel Venecia
387,Sonegaon,IN,93.33,scattered clouds,20.65,78.6833,Gaytari Got Form
389,Manjacaze,MZ,70.16,clear sky,-24.7117,33.8828,Hotel Gani
390,Sechelt,CA,51.82,overcast clouds,49.4664,-123.7694,The Driftwood Inn
392,Buala,SB,84.02,light rain,-8.145,159.5921,Maringe Lagoon Lodge
393,Dabat,ET,57.96,clear sky,12.9842,37.765,Haymanot hotel
394,East London,ZA,60.33,clear sky,-33.0153,27.9116,Tu Casa
395,Mogadishu,SO,80.4,scattered clouds,2.0371,45.3438,Hotel Juba
396,Methoni,GR,62.22,overcast clouds,36.8197,21.7049,Methoni Beach Hotel
397,Estelle,US,78.8,clear sky,29.8458,-90.1067,Boomtown Casino & Hotel New Orleans
398,Portland,US,58.41,scattered clouds,45.5234,-122.6762,Embassy Suites by Hilton Portland Downtown
400,Rach Gia,VN,85.89,overcast clouds,10.0167,105.0833,Nhà Hàng Hòa Giang
404,Port Augusta,AU,74.21,clear sky,-32.5,137.7667,Majestic Oasis Apartments
405,Abu Zabad,SD,80.02,clear sky,12.35,29.25,حامد محمد نور
406,Tura,IN,78.96,broken clouds,25.5198,90.2201,Hotel RIKMAN Continental
407,Santa Rosa,PH,88.11,overcast clouds,14.3122,121.1114,Erlyn’s Sta Rosa City Home
408,Airai,TL,76.42,broken clouds,-8.9266,125.4092,
410,Palembang,ID,77.09,broken clouds,-2.9167,104.7458,ASTON Palembang Hotel & Conference Center
411,Boende,CD,70.54,overcast clouds,-0.2167,20.8667,
412,Mattru,SL,76.39,overcast clouds,7.6244,-11.8332,"Mondkor Town, Bagbo Chiefdom, Bo District"
413,Omboue,GA,77.11,overcast clouds,-1.5746,9.2618,Hotel Olako
414,Mayo,US,55.81,overcast clouds,38.8876,-76.5119,Resorts Resource Group International
415,Kahului,US,80.62,broken clouds,20.8947,-156.47,Maui Seaside Hotel
416,Taltal,CL,72.23,clear sky,-25.4,-70.4833,Residencial Karime
417,Kilindoni,TZ,82.06,clear sky,-7.9139,39.6668,Bustani B&B
421,Bairnsdale,AU,65.05,broken clouds,-37.8333,147.6167,Town Central Motel
424,Mercedes,AR,64.04,clear sky,-34.6515,-59.4307,Posada del Inti Centro
425,Koulikoro,ML,80.92,few clouds,14.0,-7.75,
426,Souillac,MU,75.58,scattered clouds,-20.5167,57.5167,Shanti Maurice Resort & Spa
428,Birin,NP,65.66,clear sky,26.8865,88.0718,Sangam hotel and lodge
429,Chandigarh,IN,86.41,clear sky,30.7343,76.7933,Hotel Oyster
430,Itaituba,BR,72.64,broken clouds,-4.2761,-55.9836,Hotel Campos
434,Saint-Francois,FR,51.42,overcast clouds,46.4154,3.9054,Manoir Du Bonheur
438,Lumphat,KH,85.86,scattered clouds,13.4878,106.9816,Lumphat Homestay​ &​lake​side
439,Pampa,US,53.56,broken clouds,35.5362,-100.9599,"Holiday Inn Express & Suites Pampa, an IHG Hotel"
441,Hualmay,PE,69.22,scattered clouds,-11.0964,-77.6139,Hotel Villa Kitzia Huacho
442,Barcelona,ES,53.46,clear sky,41.3888,2.159,Axel Hotel Barcelona
444,Batemans Bay,AU,63.1,moderate rain,-35.7167,150.1833,Batemans Bay Marina Resort
445,Asyut,EG,71.78,clear sky,27.181,31.1837,فندق ميس إيجيبت Miss Egypt Hotel
446,Poya,NC,81.7,moderate rain,-21.35,165.15,
447,Auki,SB,86.4,overcast clouds,-8.7676,160.7034,Auki Motel
449,Nouadhibou,MR,62.58,sand,20.931,-17.0347,El Medina
450,Ambilobe,MG,72.75,broken clouds,-13.2,49.05,Hôtel & Restaurant DIANA Ambilobe
451,Rio Grande,BR,64.13,clear sky,-32.035,-52.0986,Hotel Atlântico Rio Grande
452,Maymyo,MM,84.78,clear sky,22.0333,96.4667,Tiger Hotel
453,Saldanha,ZA,59.02,overcast clouds,-33.0117,17.9442,Blue Bay Lodge
455,Deqing,CN,81.95,clear sky,30.5448,119.9599,Narada Boutique Hotel Huzhou Deqing
456,Alice Springs,AU,80.15,clear sky,-23.7,133.8833,Desert Palms Alice Springs
457,Honiara,SB,84.25,overcast clouds,-9.4333,159.95,Heritage Park Hotel
461,Fonte Boa,BR,73.54,overcast clouds,-2.4959,-66.2662,
462,Heze,CN,65.7,clear sky,35.2431,115.4411,Hanting Express Heze North Mudang Road University Town
463,Salinas,US,77.81,clear sky,36.6777,-121.6555,Laurel Inn & Conference Center
464,Shingu,JP,67.53,overcast clouds,33.7333,135.9833,Shingu UI Hotel
465,Bintulu,MY,82.81,scattered clouds,3.1667,113.0333,900 Boutique INN
466,Ahipara,NZ,68.43,few clouds,-35.1667,173.1667,Ahipara Holiday Park
469,Filingue,NE,85.06,broken clouds,14.3521,3.3168,
470,Manfredonia,IT,51.1,overcast clouds,41.6259,15.9094,Regiohotel Manfredi
472,Umm Bab,QA,76.1,clear sky,25.2142,50.8072,
473,Saint-Pierre,RE,76.68,few clouds,-21.3393,55.4781,Lindsey Hôtel
475,Makakilo City,US,76.75,overcast clouds,21.3469,-158.0858,Marriott's Ko Olina Beach Club
476,Creel,MX,52.66,broken clouds,27.75,-107.6333,The Lodge at Creel Hotel & SPA
477,Acarau,BR,77.2,overcast clouds,-2.8856,-40.12,castelo pizzaria
479,Gazli,UZ,68.86,broken clouds,40.1333,63.45,
482,Ciudad Bolivar,VE,83.03,clear sky,8.1222,-63.5497,Hotel Edi
483,Laguna,US,80.74,clear sky,38.421,-121.4238,"Holiday Inn Express & Suites Elk Grove Central - Hwy 99, an IHG Hotel"
484,Santa Marta,CO,84.88,broken clouds,11.2408,-74.199,Hotel La Ballena Azul
485,Kismayo,SO,79.75,clear sky,-0.3582,42.5454,Agan-Hotel
486,Marihatag,PH,84.81,light rain,8.7936,126.2969,Mariner's Place & Resort
487,Vermilion,US,50.52,overcast clouds,40.1667,-87.7506,Sparkling Springs Cabin
489,Matay,EG,73.78,few clouds,28.419,30.7792,Nag Aespen
491,Knysna,ZA,55.02,light rain,-34.0363,23.0471,Protea Hotel by Marriott Knysna Quays
492,Chicama,PE,64.94,broken clouds,-7.8447,-79.1469,Balihai Bungalows
494,San Martin,AR,68.54,clear sky,-33.081,-68.4681,Finca Vivencias
495,Say,NE,88.36,broken clouds,13.1007,2.3689,
496,The Valley,AI,78.66,few clouds,18.217,-63.0578,CeBlue Villas & Beach Resort
497,Espanola,US,53.24,clear sky,35.9911,-106.0806,Santa Claran Hotel Casino
498,San Ramon,US,75.42,clear sky,37.7799,-121.978,San Ramon Marriott
499,Mathbaria,BD,88.7,few clouds,22.2876,89.9593,Shikdar Hotel
500,Terra Santa,BR,74.52,overcast clouds,-2.1042,-56.4869,Hotel Sarah
501,Rock Sound,BS,78.28,clear sky,24.9,-76.2,Pink Corral Bay Property
503,Finschhafen,PG,84.42,overcast clouds,-6.6024,147.8681,Cossam Guest House
504,Necochea,AR,61.12,scattered clouds,-38.5473,-58.7368,dyd -mar Hotel
505,Sandakan,MY,85.68,scattered clouds,5.8402,118.1179,Hotel Sandakan
506,Oranjemund,,57.79,overcast clouds,-28.55,16.4333,The Fisherman's Cove
509,Navalcarnero,ES,50.25,scattered clouds,40.2891,-4.012,Hotel Ciudad de Navalcarnero
511,Goundi,TD,83.95,broken clouds,9.3627,17.366,
515,Mosna,RO,53.85,light rain,46.0833,24.4,Burg Apartments Meschen
517,Nishihara,JP,70.88,few clouds,26.1842,127.7558,Minshuku Agaihama
521,San Francisco,US,75.04,clear sky,37.7749,-122.4194,Edwardian Hotel
522,Jumla,NP,64.49,clear sky,29.2747,82.1838,Royal Garden Hotel
523,Champerico,GT,82.92,scattered clouds,14.3,-91.9167,"Hotel y restaurante ""El Diamante"""
524,Makaha,US,78.13,overcast clouds,21.4694,-158.2175,Hawaiian Princess Resort
525,Baherden,TM,69.67,overcast clouds,38.4362,57.4316,
526,Wenzhou,CN,74.43,overcast clouds,27.9994,120.6668,温州喜来登酒店
529,Pedernales,DO,78.26,clear sky,18.0384,-71.744,Hotel Costa Marina
531,Beihai,CN,77.4,few clouds,21.4833,109.1,21 Degree Hostel
534,Mareeba,AU,85.48,scattered clouds,-17.0,145.4333,Trinity Plains Tourist Park
535,Cayenne,GF,80.1,broken clouds,4.9333,-52.3333,Hôtel Le Dronmi
536,Gaoual,GN,80.85,overcast clouds,11.75,-13.2,Hotel koliba
537,Ler,SS,83.91,scattered clouds,8.3018,30.1418,Leer Humanitarian Hub
538,Kyzyl-Suu,KG,54.61,few clouds,42.3414,78.0056,Gostinitsa Nur-Ordo
539,Ranot,TH,84.63,overcast clouds,7.7777,100.3213,Pakbanglake resort ปากบางเลค รีสอร์ท
540,Chengde,CN,58.28,scattered clouds,40.9725,117.9361,Super 8 Hotel
542,West Bay,KY,81.07,few clouds,19.3667,-81.4167,Calypso Cove
546,Darnah,LY,79.3,overcast clouds,32.767,22.6367,فندق الفردوس
547,Caraballeda,VE,80.67,clear sky,10.6112,-66.8522,Hotel 15 Letras
550,Half Moon Bay,US,73.18,clear sky,37.4636,-122.4286,"The Ritz-Carlton, Half Moon Bay"
551,Ancud,CL,56.23,overcast clouds,-41.8697,-73.8203,Hotel Arena Gruesa
552,Sinnamary,GF,77.16,overcast clouds,5.3833,-52.95,ALETHEIA Appartement Sinnamary
553,Pascagoula,US,75.42,clear sky,30.3658,-88.5561,Regency Inn
554,Gurupa,BR,72.81,overcast clouds,-1.405,-51.64,Hotel Vitória
556,San Quintin,MX,65.12,clear sky,30.4833,-115.95,Don Eddie's Sport Fishing Center
558,Muros,ES,57.09,overcast clouds,42.7762,-9.0603,Apartment Av. Castelao
559,Illescas,ES,51.21,few clouds,40.1221,-3.847,Hotel Carlos I
560,Baghdad,IQ,73.31,dust,33.3406,44.4009,Baghdad Hotel
561,Mombaca,BR,71.98,overcast clouds,-5.7431,-39.6275,Mombaça Premium Hotel
562,Manaure,CO,79.25,broken clouds,11.7751,-72.4445,Hotel Palaaima
563,Hirara,JP,75.06,scattered clouds,24.8,125.2833,Hotel Atoll Emerald Miyakojima
564,Kavaratti,IN,83.03,scattered clouds,10.5669,72.642,Hotels in Lakshadweep Islands
565,Yei,SS,66.58,light rain,4.095,30.6779,City Link Hotel
566,Kamariotissa,GR,54.77,broken clouds,40.4833,25.4667,Niki Beach
569,Torbat-E Jam,IR,67.05,broken clouds,35.244,60.6225,White building
570,Bana,CM,62.53,scattered clouds,5.1481,10.2762,Hôtel La Vallée de Bana
571,Kota Belud,MY,80.82,overcast clouds,6.351,116.4305,Tang Dynasty Lodge Kota Belud
572,Ribnitz-Damgarten,DE,50.11,overcast clouds,54.25,12.4667,Perle am Bodden
573,Coahuayana,MX,68.9,overcast clouds,18.7333,-103.6833,El rranchito michuacan de ocampos
575,Artigas,UY,66.16,light rain,-30.4,-56.4667,Hotel Casino San Eugenio del Cuareim
576,Faya,SA,57.72,clear sky,18.3851,42.4509,املاك خالد الشعشوع
577,Bac Lieu,VN,84.88,broken clouds,9.285,105.7244,Khách sạn Sài Gòn Bạc Liêu
578,Oshogbo,NG,74.23,overcast clouds,7.7667,4.5667,Regina Suites Osogbo
580,Gat,IL,61.48,broken clouds,31.61,34.7642,OlusHome
581,Lampa,CL,68.77,clear sky,-33.2833,-70.9,El sueño de Lampa I y II
583,Kudat,MY,80.53,light rain,6.8837,116.8477,Dream Garden Hotel
584,Presidencia Roque Saenz Pena,AR,72.43,overcast clouds,-26.7852,-60.4388,Hotel Gualok
585,Toba,JP,68.09,overcast clouds,34.4833,136.85,ホテル アルティア鳥羽
586,Malakal,SS,84.67,clear sky,9.5334,31.6605,Nile Palace Hotel
587,Palmaner,IN,77.47,overcast clouds,13.2,78.75,NEW Vivekananda Lodge
589,Savannah Bight,HN,81.64,overcast clouds,16.45,-85.85,Villa on Dunbar Rock
590,Asfi,MA,54.82,clear sky,32.2994,-9.2372,Hôtel Abda
591,Tual,ID,83.37,overcast clouds,-5.6667,132.75,Grand Vilia Hotel
593,Calabozo,VE,86.18,overcast clouds,8.9242,-67.4293,Hotel Giardini
594,Liwale,TZ,71.02,overcast clouds,-9.7667,37.9333,Nakivubo Executive Lodge
595,Mahon,ES,50.56,clear sky,39.8885,4.2658,ARTIEM Capri
597,Ahuimanu,US,77.94,moderate rain,21.4447,-157.8378,Paradise Bay Resort
598,Shu,KZ,67.66,overcast clouds,43.5983,73.7614,Shyngyzkhan
599,Pemangkat,ID,83.14,overcast clouds,1.1667,108.9667,Ramah Kost KITA
603,Tres Arroyos,AR,59.95,scattered clouds,-38.3739,-60.2798,Habitacion Triple con baño y entrada privada
604,Tocopilla,CL,66.24,scattered clouds,-22.092,-70.1979,Hotel Galvarino
607,Kampong Cham,KH,86.58,overcast clouds,11.9934,105.4635,7 Makara Hotel
608,Buta,CD,70.0,overcast clouds,2.7858,24.73,HOTEL BISO NA BISO
609,Payo,ID,74.7,overcast clouds,-3.7508,103.6372,Mess keban agung
610,Kattivakkam,IN,86.09,scattered clouds,13.2167,80.3167,Euronova Freezer
611,Tyup,KG,59.58,scattered clouds,42.7276,78.3648,"Yurtochnyy Gorodok ""Ybrayym-Nur"""
612,Gold Coast,AU,81.9,scattered clouds,-28.0,153.4333,Mantra Towers of Chevron Surfers Paradise
613,Lahad Datu,MY,85.77,overcast clouds,5.0268,118.327,The 27th House
615,Russell,US,74.48,few clouds,32.3502,-85.1999,Macs
616,Qandala,SO,79.14,clear sky,11.472,49.8728,
618,Yazd,IR,64.51,clear sky,31.8972,54.3675,Mozaffar Traditional Hotel
619,Owando,CG,70.18,overcast clouds,-0.4819,15.8999,Exaunel Hotel Owando
620,Dwarka,IN,81.48,broken clouds,22.2394,68.9678,Hotel Narayan Avezika Comfort
622,Chitipa,MW,60.84,light rain,-9.7024,33.2697,Tulipoka Lodges
624,Hoquiam,US,56.93,overcast clouds,46.9809,-123.8893,Econo Lodge Inn & Suites
625,Praia Da Vitoria,PT,62.76,overcast clouds,38.7333,-27.0667,Hotel Branco I
628,Guye,CN,60.76,clear sky,39.7333,118.4167,Peace Hotel
630,Rayagada,IN,88.65,overcast clouds,19.1667,83.4167,"Hotel Swagath, Rayagada"
632,Shenjiamen,CN,61.63,scattered clouds,29.9576,122.298,Jinjiang Inn Zhoushan Putuo Shenjiamen
633,Luanda,AO,76.46,overcast clouds,-8.8368,13.2343,EPIC SANA Luanda
637,Gualeguay,AR,66.06,few clouds,-33.1416,-59.3097,Faro del Lago
638,Calama,CL,62.04,broken clouds,-22.4667,-68.9333,Park Hotel Calama
640,Bud,US,50.68,few clouds,39.447,-86.1758,Ted McQuinn Trust
641,Ashqelon,IL,62.49,broken clouds,31.6693,34.5715,Leonardo Ashkelon
642,Bonoua,CI,76.6,overcast clouds,5.2741,-3.595,Hotel Bon Samaritian
643,Tottori,JP,62.87,broken clouds,35.5,134.2333,Hotel Monarque Tottori
644,George,ZA,53.96,scattered clouds,-33.963,22.4617,Protea Hotel by Marriott George King George
645,Odweyne,SO,66.52,clear sky,9.4092,45.064,Eng Hiirey House
646,Rincon,US,69.85,overcast clouds,32.296,-81.2354,Days Inn Rincon
648,Socorro,US,80.19,clear sky,31.6546,-106.3033,guarderia imss papalote
649,Cotacachi,EC,54.27,broken clouds,0.3,-78.2667,La Mirage Garden Hotel And Spa
650,Peniche,PT,56.28,overcast clouds,39.3558,-9.3811,Hotel Star inn Peniche
651,Balkhash,KZ,54.21,clear sky,46.844,74.9804,Family
652,Hede,CN,65.57,clear sky,33.7681,120.2517,Vienna 3 Best Hotel Sheyang Jiefang Rd
653,Trelew,AR,56.46,overcast clouds,-43.249,-65.3051,Hotel Touring Club
654,Mithi,PK,87.82,scattered clouds,24.7318,69.7981,Ashiyana guest house
655,Broome,US,51.19,overcast clouds,42.2506,-75.833,Chenango Valley State Park
656,Ugoofaaru,MV,83.41,few clouds,5.6667,73.0,Ungoofaaru Inn
659,Jutai,BR,73.29,broken clouds,-5.1833,-68.9,
660,Eyl,SO,76.66,clear sky,7.9803,49.8164,Amiin Hotel
661,Riyadh,SA,75.92,few clouds,24.6877,46.7219,"InterContinental Riyadh, an IHG Hotel"
662,Lagoa,PT,60.75,overcast clouds,39.05,-27.9833,Casa Das Faias
663,Tupancireta,BR,63.18,overcast clouds,-29.0806,-53.8358,Hotel Cassino
668,Cuamba,MZ,67.35,overcast clouds,-14.8031,36.5372,Hotel Vision
672,Havelock,US,68.97,scattered clouds,34.8791,-76.9013,Sherwood Motel
673,Ilo,PE,67.75,broken clouds,-17.6394,-71.3375,Torreblanca Hotel
674,Waitati,NZ,56.8,scattered clouds,-45.75,170.5667,Arden Country House BnB Dunedin
675,Sao Joao Do Piaui,BR,75.69,broken clouds,-8.3581,-42.2467,Nayra Palace Hotel
678,Bontang,ID,80.28,light rain,0.1333,117.5,KOPKAR Hotel Bintang Sintuk
680,Emerald,AU,79.59,broken clouds,-23.5333,148.1667,The Irish Village
681,Margate,GB,50.88,overcast clouds,51.3813,1.3862,Premier Inn Margate hotel
683,Hobyo,SO,79.99,clear sky,5.3505,48.5268,Iftin hotel hobyo
685,Ipinda,TZ,70.29,broken clouds,-9.4833,33.9,
686,Ohara,JP,58.19,overcast clouds,35.25,140.3833,Sakigake
687,Caohai,CN,55.53,few clouds,26.8661,104.2841,Jinhua Hotel
688,Shihezi,CN,71.73,scattered clouds,44.3,86.0333,Home Inn Shihezi Dongwu Road Century Square
690,Jining,CN,67.6,clear sky,35.405,116.5814,Yunhe Star Hotel
691,Gijon,ES,54.86,broken clouds,43.5357,-5.6615,Hotel Norte
692,Itoman,JP,73.4,few clouds,26.1247,127.6694,Southern Beach Hotel & Resort Okinawa
693,Arona,ES,55.13,scattered clouds,28.0996,-16.681,Paradise Court
694,Sur,OM,84.9,clear sky,22.5667,59.5289,Sur Plaza Hotel
697,Dzaoudzi,YT,78.69,clear sky,-12.7887,45.2699,Le Rocher
698,El Alto,PE,71.55,few clouds,-4.2714,-81.2147,Black Marlin Restaurant & Hospedaje
699,Changji,CN,72.39,clear sky,44.0167,87.3167,Lvye Holiday Resort
702,Lima,PE,72.9,scattered clouds,-12.0432,-77.0282,Hotel Kamana
703,Piranshahr,IR,52.3,overcast clouds,36.701,45.1413,مسافر خانه سعدی
